[
  {
    "id": "camellia-sochi",
    "name": "Swissôtel Камелия",
    "fullName": "Swissôtel Resort Сочи Камелия",
    "city": "Сочи",
    "address": "Курортный проспект, 89, Сочи",
    "phone": "+7 862 555-21-11",
    "workingHours": "10:00 — 22:00",
    "coordinates": { "lat": 43.56071, "lng": 39.77056 },
    "whatsapp": "+79991234567",
    "telegram": "mia_camellia"
  },
  {
    "id": "mantera-sirius",
    "name": "Mantera Supreme",
    "fullName": "Mantera Supreme Seaside",
    "city": "Сириус",
    "address": "Олимпийский проспект, 36/1, Сириус",
    "phone": "+7 862 555-21-22",
    "workingHours": "10:00 — 22:00",
    "coordinates": { "lat": 43.40332, "lng": 39.95566 },
    "whatsapp": "+79991234568",
    "telegram": "mia_mantera"
  },
  {
    "id": "radisson-lazurnaya",
    "name": "Лазурная Отель",
    "fullName": "Лазурная Отель и СПА",
    "city": "Сочи",
    "address": "Курортный проспект, 103, Сочи",
    "phone": "+7 862 555-21-33",
    "workingHours": "10:00 — 22:00",
    "coordinates": { "lat": 43.52841, "lng": 39.82621 },
    "whatsapp": "+79991234569",
    "telegram": "mia_radisson"
  }
]
